{
  "generatedAt": "2026-05-09T04:46:19.246Z",
  "source": "data/RHBA membership listing April 2026.xlsx",
  "geocoded": true,
  "members": [
    {
      "id": "rhba-1",
      "name": "*Copyman/REDe Print",
      "contactEmail": "info@copymanportland.com",
      "contactName": "Caroline Chayadi",
      "phone": "503-228-3839",
      "address": "1242 SW 11th Ave. Portland, OR 97205",
      "lat": 45.5163602,
      "lng": -122.6850254
    },
    {
      "id": "rhba-2",
      "name": "*First Citizens Bank",
      "contactName": "Heather Frigaard",
      "phone": "541-968-6219",
      "website": "http://firstcitizens.com",
      "address": "15700 Boones Ferry Rd Lake Oswego, OR 97035",
      "lat": 45.4119899,
      "lng": -122.717338
    },
    {
      "id": "rhba-3",
      "name": "*Individual membership",
      "contactEmail": "jasonofgoodwill@gmail.com",
      "contactName": "Jason Goodwill",
      "lat": 45.4949625,
      "lng": -122.765925
    },
    {
      "id": "rhba-4",
      "name": "*Neighborhood House",
      "contactEmail": "development@nhpdx.org",
      "contactName": "Julia Mayfield",
      "phone": "503-246-1663",
      "website": "http://nhpdx.org",
      "address": "7780 SW Capital Hwy. Portland 97219",
      "lat": 45.494949999999996,
      "lng": -122.765925
    },
    {
      "id": "rhba-5",
      "name": "*Windermere Realty Trust",
      "contactEmail": "DWilson@DeannaWilson.com",
      "contactName": "Deanna Wilson",
      "phone": "503-701-6629",
      "website": "http://DeannaWilson.com",
      "address": "6443 SW Beaverton Hillsdale Hwy #100, Portland 97221",
      "lat": 45.4877202,
      "lng": -122.7434654
    },
    {
      "id": "rhba-6",
      "name": "AAA Oregon-Beaverton",
      "contactEmail": "holly.nikirk@aaaoregon.com",
      "contactName": "Holly Nikirk",
      "phone": "503-243-6444",
      "website": "http://AAA.com",
      "address": "8555 SW Apple Way, Portland, OR 97225",
      "lat": 45.4858006,
      "lng": -122.76329
    },
    {
      "id": "rhba-7",
      "name": "ACMB Digital Systems",
      "contactEmail": "eric@acmbdigital.com",
      "contactName": "Eric Zimmerman",
      "phone": "971-507-2030",
      "website": "https://acmbdigital.com/",
      "address": "10445 SW Canyon Rd Suite 111-D Beaverton, OR 97005",
      "lat": 45.4930319,
      "lng": -122.7844056
    },
    {
      "id": "rhba-8",
      "name": "Adorned in Grace Bridal Shop",
      "contactEmail": "surin@compassionconnect.com",
      "contactName": "Surin Ho",
      "phone": "503-310-5919",
      "website": "https://www.adornedingrace.org/",
      "address": "4949 SW 76th Avenue, Portland, OR 97225",
      "lat": 45.4842233,
      "lng": -122.7548929
    },
    {
      "id": "rhba-9",
      "name": "Advance Camera Inc",
      "contactEmail": "dave@advancecamera.com",
      "contactName": "Dave Sleeth",
      "phone": "503-292-6996",
      "website": "http://AdvanceCamera.com",
      "address": "8124 SW Beaverton Hillsdale Hwy., Portland, OR 97225",
      "lat": 45.4859414,
      "lng": -122.7606518
    },
    {
      "id": "rhba-10",
      "name": "Aging Stages Senior Services",
      "contactEmail": "belinda@agingstagesseniorservices.com",
      "contactName": "Belinda Godin",
      "phone": "971-488-3280",
      "website": "http://agingstagesseniorservices.com/",
      "address": "Moved to Medford OR",
      "lat": 45.4963875,
      "lng": -122.7522625
    },
    {
      "id": "rhba-11",
      "name": "American Pacific Mortgage",
      "contactEmail": "michelle.zafiris@apmortgage.com",
      "contactName": "Michelle Zafiris",
      "phone": "503-754-7088",
      "website": "http://www.apmortgage.com/michelle-zafiris",
      "address": "2737 SE 1st Avenue Portland, OR 97202",
      "lat": 45.496399999999994,
      "lng": -122.7522625
    },
    {
      "id": "rhba-12",
      "name": "Beyond 18, LLC",
      "contactEmail": "marie@beyond18.com",
      "contactName": "Marie Morris",
      "phone": "503-705-6177",
      "website": "https://www.beyond18.com/",
      "address": "4377 SW Fraser Ave, Portland, OR 97225",
      "lat": 45.4903005,
      "lng": -122.7466106
    },
    {
      "id": "rhba-13",
      "name": "B-Line Enterprises, LLC",
      "contactEmail": "BLineBev@gmail.com",
      "contactName": "Bev Snow-Kuehn",
      "phone": "503-452-0071",
      "website": "http://BLineEnterprises.com",
      "address": "5137 SW Martha St, Portland 97221",
      "lat": 45.485233,
      "lng": -122.7304151
    },
    {
      "id": "rhba-14",
      "name": "BMO Bank of Montreal-Raleigh Hills Branch",
      "contactEmail": "Gavin.ledson@bmo.com",
      "contactName": "Gavin Ledson",
      "phone": "503-292-3600",
      "website": "http://usbranches.bmo.com/OR/Portland/bmo163",
      "address": "6521 SW Beaverton Hillsdale Hwy, Portland, OR 97225",
      "lat": 45.4876625,
      "lng": -122.7439524
    },
    {
      "id": "rhba-15",
      "name": "Body Balance for Pets",
      "contactEmail": "Kerri@BodyBalanceForPets.com",
      "contactName": "Kerri Russell",
      "phone": "503-936-1748",
      "website": "http://BodyBalanceforPets.com",
      "address": "10700 SW Beaverton Hillsdale Hwy, Beaverton 97005",
      "lat": 45.4855287,
      "lng": -122.7868489
    },
    {
      "id": "rhba-16",
      "name": "BookSense",
      "contactEmail": "Treece@BookSenseLLC.com",
      "contactName": "Treece Dover",
      "phone": "971-257-5725",
      "website": "http://www.BooksenseLLC.com",
      "address": "9620 NE Tanasbourne Dr, Suite 320 Hillsboro 97124",
      "lat": 45.5440289,
      "lng": -122.8807268
    },
    {
      "id": "rhba-17",
      "name": "Carol Wild Tax Consultant",
      "contactEmail": "carolwild1040@gmail.com",
      "contactName": "Carol Wild",
      "phone": "503-267-6126",
      "address": "8885 SW Canyon Rd #133, Portland, OR 97225",
      "lat": 45.4977978,
      "lng": -122.7685782
    },
    {
      "id": "rhba-18",
      "name": "CJ Dean Designs/Decorating Den Interiors",
      "contactEmail": "Christine@cjdeandesigns.com",
      "contactName": "Christine Jarski",
      "phone": "503-858-8603",
      "website": "https://cjdeandesigns.decoratingden.com",
      "lat": 45.4964875,
      "lng": -122.7522625
    },
    {
      "id": "rhba-19",
      "name": "Clear Space",
      "contactEmail": "barblegacy@gmail.com",
      "contactName": "Barb Legacy",
      "phone": "503-890-9329",
      "address": "910 SW 91st #3, Portland OR 97223",
      "lat": 45.4965,
      "lng": -122.75225
    },
    {
      "id": "rhba-20",
      "name": "Combined Insurance, A CHUBB Company",
      "contactEmail": "joyce.combined@gmail.com",
      "contactName": "Joyce del Rosario",
      "phone": "971-412-8800",
      "website": "http://combined.com",
      "address": "4621 SW Patton Road, PDX 97221",
      "lat": 45.496775,
      "lng": -122.75225
    },
    {
      "id": "rhba-21",
      "name": "Community Warehouse",
      "contactEmail": "dryden@communitywarehouse.org",
      "contactName": "Dryden Driggers",
      "phone": "404-702-4104",
      "website": "http://www.communitywarehouse.or",
      "address": "3969 NE Martin Luther King Jr. Blvd, Portland 97212",
      "lat": 45.5516344,
      "lng": -122.6616771
    },
    {
      "id": "rhba-22",
      "name": "Coordinated Consulting Services",
      "contactEmail": "april@coordinatedconsulting.com",
      "contactName": "April Lawless",
      "phone": "602-571-3587",
      "website": "https://coordinatedconsulting.com/",
      "address": "10445 SW Canyon Road Suite #242, Beaverton 97005",
      "lat": 45.4968,
      "lng": -122.75225
    },
    {
      "id": "rhba-23",
      "name": "CORE Realtors",
      "contactEmail": "ellenrbick@gmail.com",
      "contactName": "Ellen Bick",
      "phone": "503-481-0825",
      "website": "http://EllenBick.com",
      "address": "4808 SW Scholls Ferry Rd, Portland, OR 97225",
      "lat": 45.492727,
      "lng": -122.7437344
    },
    {
      "id": "rhba-24",
      "name": "Courtyard Village, Raleigh Hills",
      "contactEmail": "joaniec@courtyardvillage.com",
      "contactName": "Joanie Ceballos",
      "phone": "503-297-5500",
      "website": "https://www.courtyardvillage.com/",
      "address": "4875 SW 78th, Portland, OR 97225",
      "lat": 45.4843506,
      "lng": -122.7582465
    },
    {
      "id": "rhba-25",
      "name": "Dizon Photography",
      "contactEmail": "dizonportrait@gmail.com",
      "contactName": "Marjorie Dizon",
      "phone": "503-619-5757",
      "website": "https://dizonphotography.com/",
      "address": "10445 SW Canyon Rd Suite 220, Beaverton 97005",
      "lat": 45.4930319,
      "lng": -122.7844056
    },
    {
      "id": "rhba-26",
      "name": "Dragon Rises Center for Wholeness",
      "contactEmail": "info@dragonrisesportland.com",
      "contactName": "Stephan Higgins",
      "phone": "971-808-7178",
      "website": "https://www.dragonrisesportland.com/",
      "address": "4852 SW Scholls Ferry Rd, Portland, OR 97225",
      "lat": 45.4844801,
      "lng": -122.7506914
    },
    {
      "id": "rhba-27",
      "name": "Efficiency Godmother",
      "contactEmail": "GCProust@gmail.com",
      "contactName": "Gabrielle Proust",
      "phone": "503-290-6370",
      "website": "http://EfficiencyGodmother.com",
      "lat": 45.4968625,
      "lng": -122.75225
    },
    {
      "id": "rhba-28",
      "name": "Electronics Unlimited",
      "contactEmail": "info@eucomputers.net",
      "contactName": "Becky Jarvis",
      "phone": "503-848-9191",
      "website": "http://eucomputers.net",
      "address": "PO Box 2198, Beaverton 97075",
      "lat": 45.496874999999996,
      "lng": -122.75225
    },
    {
      "id": "rhba-29",
      "name": "Elegantly Frugal Creations",
      "contactEmail": "elegantlyfrugalcreations@gmail.com",
      "contactName": "Toni Curry",
      "phone": "503-730-8869",
      "address": "8315 SW Godwin Court, Portland 97223",
      "lat": 45.4968875,
      "lng": -122.75225
    },
    {
      "id": "rhba-30",
      "name": "Erik Leland Realty First",
      "contactEmail": "Erik@LelandNW.com",
      "contactName": "Erik Leland",
      "phone": "503-200-9606",
      "website": "http://lelandnw.com/",
      "address": "16775 SW Red Rock Way Beaverton, OR 97007",
      "lat": 45.4489389,
      "lng": -122.848877
    },
    {
      "id": "rhba-31",
      "name": "Fidelity National Title",
      "contactEmail": "Jennifer.gannon@fnf.com",
      "contactName": "Jennifer Gannon",
      "phone": "503-292-8777",
      "website": "https://fidelityportland.com/offices/raleigh-hills",
      "address": "8564 SW Apple Way, Portland, OR 97225",
      "lat": 45.4858421,
      "lng": -122.7655808
    },
    {
      "id": "rhba-32",
      "name": "Fine Arts Starts!",
      "contactEmail": "fineartstarts@gmail.com",
      "contactName": "Sascha Newell",
      "phone": "503-740-8220",
      "website": "http://www.fineartstarts.org",
      "address": "6500 SW Beaverton Hsdl Hwy #2, Portland, OR 97225",
      "lat": 45.497187499999995,
      "lng": -122.75225
    },
    {
      "id": "rhba-33",
      "name": "Garden Home Community Library",
      "contactEmail": "mollyc@wccls.org",
      "contactName": "Molly Carlisle",
      "phone": "503-245-9932",
      "website": "https://www.wccls.org/libraries/gardenhome",
      "address": "7475 SW Oleson Rd, Portland 97223",
      "lat": 45.4663868,
      "lng": -122.7533262
    },
    {
      "id": "rhba-34",
      "name": "Groves Capital",
      "contactEmail": "bob.schmidt@grovescapital.com",
      "contactName": "Bob Schmidt",
      "phone": "971-336-4857",
      "website": "http://www.grovescapital.com",
      "address": "4883 Ronson Court Suite A/B, San Diego CA 92111",
      "lat": 32.8300974,
      "lng": -117.1459575
    },
    {
      "id": "rhba-35",
      "name": "Health Touch Massage Center",
      "contactEmail": "adaboje@massagetherapy.com",
      "contactName": "Ada Boje",
      "phone": "503-641-7743",
      "website": "https://www.healthtouchmassagecenter.com/",
      "address": "10445 SW Canyon Road Suite 240, Beaverton 97005",
      "lat": 45.4930319,
      "lng": -122.7844056
    },
    {
      "id": "rhba-36",
      "name": "Individual membership",
      "contactEmail": "sneddi@comcast.net",
      "contactName": "Diane Snedecor",
      "phone": "503-816-4660",
      "address": "4931 SW 76th Ave Suite 106, Portland, OR 97225",
      "lat": 45.4843785,
      "lng": -122.7553275
    },
    {
      "id": "rhba-37",
      "name": "IPA Physio",
      "contactEmail": "Kristin@ipa.physio",
      "contactName": "Kristin King",
      "phone": "503-616-0313",
      "website": "http://ipa.physio/portland",
      "address": "7412 SW Beaverton Hillsdale Highway, Suite 110, Portland, OR 97225",
      "lat": 45.4854235,
      "lng": -122.7533421
    },
    {
      "id": "rhba-38",
      "name": "James Neighborhood Recycling Service",
      "contactEmail": "jshrecycling@gmail.com",
      "contactName": "Kathi Goldman",
      "phone": "971-217-7444",
      "website": "http://jshrecycling.com",
      "address": "4015 SW 57th Ave, Portland, OR 97221",
      "lat": 45.4941216,
      "lng": -122.7353465
    },
    {
      "id": "rhba-39",
      "name": "Jan's &amp; Arcade Book Exchange",
      "contactEmail": "contact@janspaperbacks.com",
      "contactName": "Lori Carroll",
      "phone": "503-649-3444",
      "website": "https://www.janspaperbacks.com/",
      "address": "4838 SW Scholls Ferry Rd, Portland, OR 97225",
      "lat": 45.484832,
      "lng": -122.7507895
    },
    {
      "id": "rhba-40",
      "name": "John L Scott Real Estate",
      "contactEmail": "beverlymoser@johnlscott.com",
      "contactName": "Beverly Moser",
      "phone": "503-789-5417",
      "website": "https://beverlymoser.johnlscott.com/home",
      "address": "1800 NW 167th Place Suite 100 Beaverton, OR 97006",
      "lat": 45.5291512,
      "lng": -122.8490732
    },
    {
      "id": "rhba-41",
      "name": "Key Bank - Raleigh Hills Branch",
      "contactEmail": "Kim_Nguyen@keybank.com",
      "contactName": "Kim Nguyen",
      "phone": "503-292-3551",
      "website": "http://key.com",
      "address": "6620 SW Beaverton Hillsdale Hwy., Portland, OR 97225",
      "lat": 45.4866146,
      "lng": -122.7450686
    },
    {
      "id": "rhba-42",
      "name": "La Provence Raleigh Hills",
      "contactEmail": "zachl@provencepdx.com",
      "contactName": "Zachary Laub",
      "phone": "503-719-4511",
      "website": "http://provencepdx.com/",
      "address": "7424 SW Beaverton Hsdl Hwy Portland",
      "lat": 45.497575,
      "lng": -122.75225
    },
    {
      "id": "rhba-43",
      "name": "Lark and Fir Realty",
      "contactEmail": "chylese@larkandfir.com",
      "contactName": "Chylese Austin",
      "phone": "503-977-7776",
      "website": "http://www.larkandfir.com",
      "address": "4834 SW Scholls Ferry Rd, Portland, OR 97225",
      "lat": 45.4849739,
      "lng": -122.7507813
    },
    {
      "id": "rhba-44",
      "name": "M F Chase Websites",
      "contactEmail": "michael@mfchase.com",
      "contactName": "Michael Chase",
      "phone": "503-808-0021",
      "website": "http://mfchase.com",
      "address": "944 Hermanson St, Woodburn 97071",
      "lat": 45.1326283,
      "lng": -122.8542462
    },
    {
      "id": "rhba-45",
      "name": "MB Craftworks",
      "contactEmail": "mbcraftworks2023@gmail.com",
      "contactName": "Melissa Snyder",
      "phone": "503-327-3962",
      "website": "http://mbcraftworks.com",
      "address": "3224 SW Thiessen Pl Aloha 97003",
      "lat": 45.4964341,
      "lng": -122.872025
    },
    {
      "id": "rhba-46",
      "name": "Mudville Clay Studio",
      "contactEmail": "mudvilleclaystudio@gmail.com",
      "contactName": "Stephanie Huiskamp",
      "phone": "971-249-2940",
      "website": "http://mudvilleclaystudio.com",
      "address": "4805 SW 77th Ave, Portland, OR 97225",
      "lat": 45.4854569,
      "lng": -122.7572506
    },
    {
      "id": "rhba-47",
      "name": "Oregon First",
      "contactEmail": "carriewelch@oregonfirst.com",
      "contactName": "Carrie Welch",
      "phone": "503-522-7695",
      "website": "http://oregonfirst.com",
      "address": "8845 SW Indian Hill Ln, Beaverton OR 97008",
      "lat": 45.4558986,
      "lng": -122.8039117
    },
    {
      "id": "rhba-48",
      "name": "Parish of St John the Baptist",
      "contactEmail": "fitzmaur1231@gmail.com",
      "contactName": "Mark FitzMaurice",
      "phone": "503-245-3777",
      "website": "https://www.sjb-pdx.org/",
      "address": "6300 SW Nicol Rd, Portland 97223",
      "lat": 45.49765,
      "lng": -122.75225
    },
    {
      "id": "rhba-49",
      "name": "Parr Lumber",
      "contactEmail": "ryan.tully@parr.com",
      "contactName": "Ryan Tully",
      "phone": "503-292-4471",
      "website": "http://parr.com",
      "address": "4605 SW Scholls Ferry Road, Portland, OR 97225",
      "lat": 45.4870095,
      "lng": -122.748322
    },
    {
      "id": "rhba-50",
      "name": "Portland Clay House",
      "contactEmail": "portlandclayhouse@gmail.com",
      "contactName": "Kimberly Mathews",
      "phone": "503-208-4273",
      "website": "http://portlandclayhouse.com",
      "address": "4770 SW 78th Ave, Portland, OR 97225",
      "lat": 45.4979375,
      "lng": -122.75225
    },
    {
      "id": "rhba-51",
      "name": "Portland Specific Chiropractic",
      "contactEmail": "info@pdxspecificchiro.com",
      "contactName": "Nikolai Young",
      "phone": "503-334-4545",
      "website": "http://pdxspecificchiro.com",
      "address": "5319 SW Westgate Dr Suite 126 Portland, OR 97221",
      "lat": 45.5098976,
      "lng": -122.7310887
    },
    {
      "id": "rhba-52",
      "name": "Principal Financial Group",
      "contactEmail": "william.amsden@gmail.com",
      "contactName": "Bill Amsden",
      "phone": "503-206-2095",
      "website": "http://www.principal.com/northwest",
      "address": "5665 SW Meadows Road #350, LO 97035",
      "lat": 45.4979625,
      "lng": -122.75225
    },
    {
      "id": "rhba-53",
      "name": "Raleigh Hills Assisted Living",
      "contactEmail": "Kevin@RHAL.com",
      "contactName": "Kevin Call",
      "phone": "503-297-3200",
      "website": "http://rhliving.com",
      "address": "4815 SW Dogwood Ln, Portland, OR 97225",
      "lat": 45.484668,
      "lng": -122.7495786
    },
    {
      "id": "rhba-54",
      "name": "Raleigh Water District",
      "contactEmail": "raleighwater@comcast.net",
      "contactName": "Matt Steidler",
      "phone": "503-292-4894",
      "website": "https://www.raleigh-h2o.com/",
      "address": "5010 SW Scholls Ferry Rd, Portland, OR 97225",
      "lat": 45.4834805,
      "lng": -122.7541122
    },
    {
      "id": "rhba-55",
      "name": "Salute Our Veterans",
      "contactEmail": "agnes.v@saluteourveterans.org",
      "contactName": "Agnes Vangsnes",
      "phone": "971-910-0670",
      "website": "http://www.saluteourveterans.org/",
      "address": "6143 SW Lynmar Pl Beaverton, OR 97078",
      "lat": 45.4756254,
      "lng": -122.8923701
    },
    {
      "id": "rhba-56",
      "name": "SBC Recycle",
      "contactEmail": "support@sbcrecycle.com",
      "contactName": "Tony Woest",
      "phone": "503-914-2721",
      "website": "http://sbcrecyle.com",
      "address": "19040 SW Shaw St, Unit C, Beaverton OR 97078",
      "lat": 45.4910272,
      "lng": -122.840607
    },
    {
      "id": "rhba-57",
      "name": "Scholls Crossing Center–Office &amp; Retail Space",
      "contactEmail": "mark@schollscrossing.com",
      "contactName": "Mark Lawrence",
      "phone": "503-292-8678",
      "website": "https://mark6579.wixsite.com/schollscrossing",
      "address": "4822 SW Scholls Ferry Rd, Portland, OR 97225",
      "lat": 45.4844827,
      "lng": -122.7501577
    },
    {
      "id": "rhba-58",
      "name": "Sherman Family Properties",
      "contactEmail": "Sherman@ShermanFamilyProperties.com",
      "contactName": "Mary Sherman",
      "phone": "503-805-7747",
      "website": "http://ShermanFamilyProperties.com",
      "address": "PO Box 25565 Portland 97298",
      "lat": 45.498037499999995,
      "lng": -122.75225
    },
    {
      "id": "rhba-59",
      "name": "Shirley A Roggen Interior Designer",
      "contactEmail": "shirleyroggen49@gmail.com",
      "contactName": "Shirley Roggen",
      "phone": "503-225-0274",
      "address": "8265 SW Ridgeway Dr., Portland, OR 97225",
      "lat": 45.4956377,
      "lng": -122.761705
    },
    {
      "id": "rhba-60",
      "name": "Solera Senior Advisors",
      "contactEmail": "beth@solerasenioradvisors.com",
      "contactName": "Beth Koschmann",
      "phone": "206-788-5436",
      "website": "http://www.solerasenioradvosors.com",
      "address": "612 Little Oak St. Newberg, OR 97132",
      "lat": 45.304552,
      "lng": -122.9414051
    },
    {
      "id": "rhba-61",
      "name": "Stuff Adjust - Professional Organizing",
      "contactEmail": "amy@stuffadjust.com",
      "contactName": "Amy Swallow",
      "phone": "503-740-2406",
      "website": "http://stuffadjust.com",
      "address": "3690 SW 91st Ave, Portland, OR 97225",
      "lat": 45.4932434,
      "lng": -122.7703193
    },
    {
      "id": "rhba-62",
      "name": "SuperPlay",
      "contactEmail": "terry@superplayor.com",
      "contactName": "Terry Pierce &amp; Kathy Holmes",
      "phone": "503-292-3523",
      "website": "http://www.superplayor.com",
      "address": "9300 SW Beaverton Hillsdale Hwy. Beaverton 97005",
      "lat": 45.484461,
      "lng": -122.7721987
    },
    {
      "id": "rhba-63",
      "name": "Talon's Massage and Bodywork",
      "contactEmail": "talonsmassage@gmail.com",
      "contactName": "Billy \"Talon\" Wooten",
      "phone": "971-270-6106",
      "website": "http://talonsmassage.com",
      "address": "10445 SW Canyon Road Suite 260, Beaverton 97005",
      "lat": 45.4930319,
      "lng": -122.7844056
    },
    {
      "id": "rhba-64",
      "name": "Thomas C Maynard, CPA",
      "contactEmail": "tom@tcm-cpa.com",
      "contactName": "Tom Maynard",
      "phone": "503-644-5111",
      "website": "https://tcm-cpa.com/",
      "address": "4931 SW 76th Ave #107, Portland, OR 97225",
      "lat": 45.4843785,
      "lng": -122.7553275
    },
    {
      "id": "rhba-65",
      "name": "TITLE Boxing CLub",
      "contactEmail": "agm-pdx@titleboxing",
      "contactName": "Cynthia Vigil Morales",
      "phone": "503-567-6791",
      "website": "http://titleboxingclub.com/portland-beaverton-or/",
      "address": "7417 SW Beaverton Hillsdale Hwy, Portland, OR 97225",
      "lat": 45.4865788,
      "lng": -122.7534285
    },
    {
      "id": "rhba-66",
      "name": "Valley Community Presbyterian Church",
      "contactEmail": "ruthannemarquis@gmail.com",
      "contactName": "Ruthann Marquis",
      "phone": "503-292-3537",
      "website": "http://valleycommunity.org",
      "address": "8060 SW Brentwood Street, Portland, OR 97225",
      "lat": 45.4907295,
      "lng": -122.7601267
    },
    {
      "id": "rhba-67",
      "name": "Washington County Chamber of Commerce",
      "contactEmail": "karav@wcchamber.org",
      "contactName": "Kara Volz",
      "phone": "503-726-2147",
      "website": "http://www.washingtoncountychamberor.com/",
      "address": "5193 NE Elam Young Pkwy Ste A Hillsboro, OR 97124",
      "lat": 45.5313909,
      "lng": -122.9317979
    },
    {
      "id": "rhba-68",
      "name": "Washington County Economic Development",
      "contactEmail": "adrienne_chaille@washingtoncountyor.gov",
      "contactName": "Adrienne Chaille",
      "phone": "503-407-3182",
      "website": "http://washingtoncountyor.gov/economic-development",
      "address": "155 N First Avenue, Hillsboro 97124",
      "lat": 45.498425,
      "lng": -122.7522375
    },
    {
      "id": "rhba-69",
      "name": "Washington County Sheriff’s Office",
      "contactEmail": "meghan_rasmussen@washingtoncountyor.gov",
      "contactName": "Meghan Rasmussen",
      "phone": "503-846-5578",
      "website": "http://washingtoncountyor.gov",
      "address": "215 SW Adams Ave MS32, Hillsboro 97123",
      "lat": 45.498437499999994,
      "lng": -122.7522375
    },
    {
      "id": "rhba-70",
      "name": "West Slope Water District",
      "contactEmail": "customer.service@wswd.org",
      "phone": "503-292-2777",
      "website": "http://wswd.org",
      "address": "PO Box 25140, Portland 97298",
      "lat": 45.4737125,
      "lng": -122.7522375
    },
    {
      "id": "rhba-71",
      "name": "Westside Wines",
      "contactEmail": "info@westsidewinespdx.com",
      "contactName": "Madalyn Eagon",
      "phone": "971-464-1334",
      "website": "http://westsidewinespdx.com/",
      "address": "8122 SW Bvtn Hsdl Hwy, Portland, OR 97225",
      "lat": 45.473724999999995,
      "lng": -122.7522375
    },
    {
      "id": "rhba-72",
      "name": "Windermere Realty",
      "contactEmail": "amyrice@windermere.com",
      "contactName": "Amy Rice",
      "phone": "503-333-5519",
      "website": "https://amyrice.withwre.com/",
      "address": "8585 SW Cashmur Ln, Portland, OR 97225",
      "lat": 45.4965382,
      "lng": -122.7652346
    },
    {
      "id": "rhba-73",
      "name": "Windermere Realty Trust",
      "contactEmail": "joncohen@windermere.com",
      "contactName": "Jon Cohen",
      "phone": "503-720-9393",
      "website": "http://www.joncohenrealty.com/",
      "address": "6443 SW Beaverton-Hillsdale Hwy Suite 100 Portland, OR 97221",
      "lat": 45.4877202,
      "lng": -122.7434654
    },
    {
      "id": "rhba-74",
      "name": "Wolex Technologies",
      "contactEmail": "sfpeters@wolex.net",
      "contactName": "Seun Peters",
      "phone": "503-662-2190",
      "website": "http://wolex.net",
      "address": "10445 SW Canyon Rd #220, Beaverton 97005",
      "lat": 45.4930319,
      "lng": -122.7844056
    },
    {
      "id": "rhba-75",
      "name": "Cheers To You Party Goods",
      "contactEmail": "cheerstoyoupartygoods@gmail.com",
      "contactName": "Lisa Perrin",
      "phone": "503-719-6416",
      "website": "https://cheerstoyoupartygoods.com/",
      "address": "8112 SW Beaverton Hillsdale Hwy, Portland, OR 97225",
      "lat": 45.4859393,
      "lng": -122.7602196
    },
    {
      "id": "rhba-76",
      "name": "Edward Jones",
      "contactEmail": "matthew.tuttle@edwardjones.com",
      "contactName": "Matt Tuttle",
      "phone": "503-292-3953",
      "website": "https://www.edwardjones.com/us-en/financial-advisor/matthew-tuttle",
      "address": "10300 SW Greenburg Rd # 550, Portland 97223",
      "lat": 45.4737875,
      "lng": -122.7522375
    },
    {
      "id": "rhba-77",
      "name": "Electro Glow Electrolysis",
      "contactEmail": "shine@electroglowing.com",
      "contactName": "Jodi Wynn Turner",
      "phone": "971-303-9360",
      "website": "http://www.electroglowing.com",
      "address": "10445 SW Canyon Rd Suite 114 Beaverton, OR",
      "lat": 45.4930319,
      "lng": -122.7844056
    },
    {
      "id": "rhba-78",
      "name": "Ernestos Italian Restaurant",
      "contactEmail": "banquetpdx@gmail.com",
      "contactName": "Chris Wenger",
      "phone": "503-292-0119",
      "website": "https://ernestositalian.com/",
      "address": "8544 SW Apple Way, Portland, OR 97225",
      "lat": 45.4853715,
      "lng": -122.7654142
    },
    {
      "id": "rhba-79",
      "name": "Fidelity National Title",
      "contactEmail": "georgina.perkins@fnf.com",
      "contactName": "George Perkins",
      "phone": "503-292-8777",
      "website": "https://fidelityportland.com/offices/raleigh-hills",
      "address": "8564 SW Apple Way, Portland, OR 97225",
      "lat": 45.4858421,
      "lng": -122.7655808
    },
    {
      "id": "rhba-80",
      "name": "Friends of the West Slope Community Library",
      "contactEmail": "gerlachdb@gmail.com",
      "contactName": "Dorothy Gerlach",
      "phone": "503-957-9090",
      "website": "http://friendsofwsl.org",
      "address": "3678 SW 78th, Portland, OR 97225",
      "lat": 45.4933661,
      "lng": -122.7572041
    },
    {
      "id": "rhba-81",
      "name": "LifeWave",
      "contactEmail": "rc143@msn.com",
      "contactName": "Robin Curtin",
      "phone": "503-449-6577",
      "website": "https://www.lifewave.com/1160959",
      "lat": 45.4741125,
      "lng": -122.7522375
    },
    {
      "id": "rhba-82",
      "name": "Noodles Restaurant",
      "contactEmail": "noodlespdx1@gmail.com",
      "contactName": "Victor Mex/Juan Crisantos",
      "phone": "503-292-6480",
      "website": "https://noodlesportland.com/",
      "address": "6830 SW Beaverton Hillsdale Hwy, Portland, OR 97225",
      "lat": 45.4870632,
      "lng": -122.7445059
    },
    {
      "id": "rhba-83",
      "name": "The Liminal Store",
      "contactEmail": "portal@theliminalstore.com",
      "contactName": "Allison Montoya",
      "phone": "707-758-1045",
      "website": "http://theliminalstore.com",
      "address": "8142 SW Beaverton Hillsdale Hwy Portland 97225",
      "lat": 45.485862,
      "lng": -122.7604824
    },
    {
      "id": "rhba-84",
      "name": "Rock Paper Garden Art",
      "contactEmail": "msmarilynmays@gmail.com",
      "contactName": "Marilyn Mays",
      "phone": "503-464-6058",
      "address": "7630 SW 89th Ave Portland, OR 97223",
      "lat": 45.474149999999995,
      "lng": -122.7522375
    }
  ],
  "geocodedAt": "2026-05-09T04:58:12.166Z"
}
